{
  "country": "US",
  "country_name": "United States",
  "notes": "Focus on INDOPACOM / Pacific-facing installations relevant to First Island Chain posture. Not exhaustive.",
  "bases": [
    {
      "id": "US-PEARL-HICKAM",
      "name": "Joint Base Pearl Harbor-Hickam",
      "country": "US",
      "branch": "Joint",
      "type": "Joint",
      "location": "Honolulu, Hawaii",
      "latitude": 21.3469,
      "longitude": -157.9394,
      "operator": "USINDOPACOM / US Pacific Fleet / PACAF",
      "role": "HQ of Pacific Fleet; principal naval and air hub in Pacific",
      "notable_units": ["US Pacific Fleet HQ", "15th Wing", "Submarine Force Pacific"],
      "established": 1899
    },
    {
      "id": "US-CAMP-SMITH",
      "name": "Camp H. M. Smith",
      "country": "US",
      "branch": "Joint",
      "type": "HQ",
      "location": "Aiea, Hawaii",
      "latitude": 21.3894,
      "longitude": -157.9111,
      "operator": "USINDOPACOM",
      "role": "Headquarters of US Indo-Pacific Command",
      "notable_units": ["USINDOPACOM HQ", "MARFORPAC"],
      "established": 1955
    },
    {
      "id": "US-SCHOFIELD",
      "name": "Schofield Barracks",
      "country": "US",
      "branch": "Army",
      "type": "Army",
      "location": "Oahu, Hawaii",
      "latitude": 21.4953,
      "longitude": -158.0611,
      "operator": "US Army Pacific",
      "role": "Home of 25th Infantry Division",
      "notable_units": ["25th Infantry Division"],
      "established": 1908
    },
    {
      "id": "US-ANDERSEN",
      "name": "Andersen Air Force Base",
      "country": "US",
      "branch": "Air Force",
      "type": "Airbase",
      "location": "Yigo, Guam",
      "latitude": 13.5842,
      "longitude": 144.9242,
      "operator": "Pacific Air Forces (PACAF) / 36th Wing",
      "role": "Continuous Bomber Presence / Bomber Task Force; forward Pacific strike hub",
      "notable_units": ["36th Wing", "Rotational B-1/B-2/B-52 detachments"],
      "established": 1944
    },
    {
      "id": "US-NB-GUAM",
      "name": "Naval Base Guam",
      "country": "US",
      "branch": "Navy",
      "type": "Naval",
      "location": "Apra Harbor, Guam",
      "latitude": 13.4419,
      "longitude": 144.6553,
      "operator": "US Pacific Fleet",
      "role": "Submarine and logistics hub; homeport of SSNs",
      "notable_units": ["Submarine Squadron 15", "Coast Guard Sector Guam"],
      "established": 1944
    },
    {
      "id": "US-CAMP-BLAZ",
      "name": "Marine Corps Base Camp Blaz",
      "country": "US",
      "branch": "Marines",
      "type": "Joint",
      "location": "Dededo, Guam",
      "latitude": 13.5667,
      "longitude": 144.8450,
      "operator": "US Marine Corps",
      "role": "New USMC base; receives Marines relocated from Okinawa",
      "notable_units": ["3rd Marine Littoral Regiment (planned)"],
      "established": 2020
    },
    {
      "id": "US-YOKOSUKA",
      "name": "US Fleet Activities Yokosuka",
      "country": "US",
      "branch": "Navy",
      "type": "Naval",
      "location": "Yokosuka, Kanagawa, Japan",
      "latitude": 35.2919,
      "longitude": 139.6667,
      "operator": "US 7th Fleet",
      "role": "Headquarters of US 7th Fleet; only forward-deployed US CSG homeport",
      "notable_units": ["7th Fleet HQ", "CSG 5 (CVN-76 USS Ronald Reagan / CVN-73 Washington)", "DESRON 15"],
      "established": 1945
    },
    {
      "id": "US-ATSUGI",
      "name": "Naval Air Facility Atsugi",
      "country": "US",
      "branch": "Navy",
      "type": "Airbase",
      "location": "Ayase/Yamato, Kanagawa, Japan",
      "latitude": 35.4546,
      "longitude": 139.4500,
      "operator": "US Navy / JMSDF (co-located)",
      "role": "CVW-5 airwing support (air wing now at MCAS Iwakuni)",
      "notable_units": ["Helicopter Maritime Strike Sq"],
      "established": 1938
    },
    {
      "id": "US-YOKOTA",
      "name": "Yokota Air Base",
      "country": "US",
      "branch": "Air Force",
      "type": "Airbase",
      "location": "Fussa, Tokyo, Japan",
      "latitude": 35.7486,
      "longitude": 139.3486,
      "operator": "US Forces Japan / 5th Air Force / 374th Airlift Wing",
      "role": "HQ USFJ and 5th AF; strategic airlift hub",
      "notable_units": ["374th Airlift Wing (C-130J)", "USFJ HQ"],
      "established": 1940
    },
    {
      "id": "US-MISAWA",
      "name": "Misawa Air Base",
      "country": "US",
      "branch": "Air Force",
      "type": "Airbase",
      "location": "Misawa, Aomori, Japan",
      "latitude": 40.7033,
      "longitude": 141.3683,
      "operator": "35th Fighter Wing (PACAF)",
      "role": "Northern Japan air defense; F-16CJ SEAD mission",
      "notable_units": ["35th Fighter Wing (F-16CM)", "JASDF 3rd Air Wing (F-35A)"],
      "established": 1938
    },
    {
      "id": "US-IWAKUNI",
      "name": "Marine Corps Air Station Iwakuni",
      "country": "US",
      "branch": "Marines",
      "type": "Airbase",
      "location": "Iwakuni, Yamaguchi, Japan",
      "latitude": 34.1439,
      "longitude": 132.2358,
      "operator": "US Marine Corps / 1st MAW",
      "role": "Forward-deployed F-35B and Navy CVW-5 host",
      "notable_units": ["VMFA-121 (F-35B)", "CVW-5 (F/A-18E/F, EA-18G, E-2D)"],
      "established": 1940
    },
    {
      "id": "US-KADENA",
      "name": "Kadena Air Base",
      "country": "US",
      "branch": "Air Force",
      "type": "Airbase",
      "location": "Kadena, Okinawa, Japan",
      "latitude": 26.3556,
      "longitude": 127.7678,
      "operator": "18th Wing (PACAF)",
      "role": "Largest USAF base in Far East; central to Okinawa air power",
      "notable_units": ["18th Wing (F-15C/D being replaced by rotational F-22/F-35/F-15EX)", "353rd SOG", "623rd AMS"],
      "established": 1945
    },
    {
      "id": "US-CAMP-FOSTER",
      "name": "Camp Foster",
      "country": "US",
      "branch": "Marines",
      "type": "Joint",
      "location": "Ginowan, Okinawa, Japan",
      "latitude": 26.2925,
      "longitude": 127.7500,
      "operator": "III Marine Expeditionary Force",
      "role": "HQ of III MEF and Marine Corps Installations Pacific",
      "notable_units": ["III MEF HQ", "3rd Marine Division components"],
      "established": 1945
    },
    {
      "id": "US-FUTENMA",
      "name": "Marine Corps Air Station Futenma",
      "country": "US",
      "branch": "Marines",
      "type": "Airbase",
      "location": "Ginowan, Okinawa, Japan",
      "latitude": 26.2742,
      "longitude": 127.7558,
      "operator": "1st Marine Aircraft Wing",
      "role": "Marine rotary/tiltrotor aviation; slated to relocate to Henoko",
      "notable_units": ["MAG-36 (MV-22B, CH-53E)"],
      "established": 1945
    },
    {
      "id": "US-CAMP-HANSEN",
      "name": "Camp Hansen",
      "country": "US",
      "branch": "Marines",
      "type": "Army",
      "location": "Kin, Okinawa, Japan",
      "latitude": 26.4456,
      "longitude": 127.9194,
      "operator": "US Marine Corps",
      "role": "Infantry training area; home of 4th Marines elements",
      "notable_units": ["31st MEU components", "4th Marines"],
      "established": 1955
    },
    {
      "id": "US-CAMP-SCHWAB",
      "name": "Camp Schwab",
      "country": "US",
      "branch": "Marines",
      "type": "Army",
      "location": "Nago, Okinawa, Japan",
      "latitude": 26.5272,
      "longitude": 128.0428,
      "operator": "US Marine Corps",
      "role": "Planned successor airfield site (Futenma replacement)",
      "notable_units": ["3rd Marine Division elements"],
      "established": 1956
    },
    {
      "id": "US-SASEBO",
      "name": "US Fleet Activities Sasebo",
      "country": "US",
      "branch": "Navy",
      "type": "Naval",
      "location": "Sasebo, Nagasaki, Japan",
      "latitude": 33.1617,
      "longitude": 129.7236,
      "operator": "US 7th Fleet",
      "role": "Amphibious Ready Group homeport (LHD, LPD, LSD)",
      "notable_units": ["Amphibious Squadron 11", "Expeditionary Strike Group 7"],
      "established": 1946
    },
    {
      "id": "US-CAMP-ZAMA",
      "name": "Camp Zama",
      "country": "US",
      "branch": "Army",
      "type": "HQ",
      "location": "Zama, Kanagawa, Japan",
      "latitude": 35.5111,
      "longitude": 139.3908,
      "operator": "US Army Japan / I Corps (Forward)",
      "role": "HQ US Army Japan",
      "notable_units": ["USARJ HQ", "I Corps (Forward)"],
      "established": 1945
    },
    {
      "id": "US-CAMP-HUMPHREYS",
      "name": "Camp Humphreys (USAG Humphreys)",
      "country": "US",
      "branch": "Army",
      "type": "Joint",
      "location": "Pyeongtaek, South Korea",
      "latitude": 36.9667,
      "longitude": 127.0333,
      "operator": "US Forces Korea / 8th Army",
      "role": "Largest overseas US military base; HQ USFK, CFC, 8th Army",
      "notable_units": ["USFK HQ", "8th Army HQ", "2nd Infantry Division (ROK-US)"],
      "established": 1919
    },
    {
      "id": "US-OSAN",
      "name": "Osan Air Base",
      "country": "US",
      "branch": "Air Force",
      "type": "Airbase",
      "location": "Pyeongtaek, South Korea",
      "latitude": 37.0906,
      "longitude": 127.0297,
      "operator": "7th Air Force / 51st Fighter Wing",
      "role": "HQ 7th AF; A-10C / F-16 forward air power",
      "notable_units": ["51st FW (A-10C, F-16CM)", "607th ACS"],
      "established": 1952
    },
    {
      "id": "US-KUNSAN",
      "name": "Kunsan Air Base",
      "country": "US",
      "branch": "Air Force",
      "type": "Airbase",
      "location": "Gunsan, South Korea",
      "latitude": 35.9036,
      "longitude": 126.6156,
      "operator": "8th Fighter Wing (PACAF)",
      "role": "Forward F-16 wing ('Wolf Pack')",
      "notable_units": ["8th FW (F-16CM)"],
      "established": 1938
    },
    {
      "id": "US-CHINHAE",
      "name": "Commander Fleet Activities Chinhae",
      "country": "US",
      "branch": "Navy",
      "type": "Naval",
      "location": "Jinhae, South Korea",
      "latitude": 35.1456,
      "longitude": 128.6792,
      "operator": "CNFK",
      "role": "Logistics support to 7th Fleet in Korea",
      "notable_units": ["CNFK HQ"],
      "established": 1946
    },
    {
      "id": "US-SUBIC-ROTATIONAL",
      "name": "Subic Bay / EDCA Rotational Access",
      "country": "US",
      "branch": "Joint",
      "type": "Logistics",
      "location": "Subic Bay, Philippines",
      "latitude": 14.7944,
      "longitude": 120.2794,
      "operator": "US forces (rotational, under EDCA)",
      "role": "Rotational access; logistics and exercises",
      "notable_units": ["Rotational detachments; no permanent US units"],
      "established": 2014
    },
    {
      "id": "US-DIEGO-GARCIA",
      "name": "Naval Support Facility Diego Garcia",
      "country": "US",
      "branch": "Joint",
      "type": "Joint",
      "location": "Diego Garcia, BIOT (Indian Ocean)",
      "latitude": -7.3133,
      "longitude": 72.4111,
      "operator": "US Navy / USAF",
      "role": "Strategic bomber / prepositioning hub (Indian Ocean)",
      "notable_units": ["Rotational bomber task forces", "MPSRON 2"],
      "established": 1971
    },
    {
      "id": "US-WAKE",
      "name": "Wake Island Airfield",
      "country": "US",
      "branch": "Air Force",
      "type": "Airbase",
      "location": "Wake Island",
      "latitude": 19.2833,
      "longitude": 166.6500,
      "operator": "PACAF (611th Air Support Squadron)",
      "role": "Trans-Pacific divert / ACE (Agile Combat Employment) node",
      "notable_units": ["Contractor-operated; rotational US personnel"],
      "established": 1935
    },
    {
      "id": "US-TINIAN-DIVERT",
      "name": "Tinian Divert & Exercise Airfield",
      "country": "US",
      "branch": "Air Force",
      "type": "Airbase",
      "location": "Tinian, CNMI",
      "latitude": 14.9992,
      "longitude": 145.6194,
      "operator": "PACAF",
      "role": "Divert field and ACE node for Guam air ops",
      "notable_units": ["Rotational"],
      "established": 1945
    },
    {
      "id": "US-VANDENBERG",
      "name": "Vandenberg Space Force Base",
      "country": "US",
      "branch": "Space",
      "type": "Missile",
      "location": "Lompoc, California",
      "latitude": 34.7420,
      "longitude": -120.5724,
      "operator": "Space Launch Delta 30",
      "role": "ICBM test launches, polar satellite launch",
      "notable_units": ["30th Space Wing legacy / SLD 30"],
      "established": 1941
    },
    {
      "id": "US-FTGREELY",
      "name": "Fort Greely",
      "country": "US",
      "branch": "Space",
      "type": "Missile",
      "location": "Delta Junction, Alaska",
      "latitude": 63.9958,
      "longitude": -145.7250,
      "operator": "Missile Defense Agency",
      "role": "Ground-Based Midcourse Defense (GBI interceptors)",
      "notable_units": ["49th Missile Defense Battalion"],
      "established": 1942
    }
  ]
}
