{
  "country": {
    "id": "prc",
    "name_zh": "中華人民共和國 (PLA)",
    "name_en": "People's Republic of China",
    "color": "#c62828",
    "icon": "🇨🇳"
  },
  "bases": [
    {
      "id": "prc-cmc",
      "name_zh": "中央軍委 (八一大樓)",
      "name_en": "Central Military Commission (Bayi Building)",
      "service": "CMC",
      "type": "national_hq",
      "tier": 1,
      "city_zh": "北京海淀復興路",
      "lat": 39.9075,
      "lng": 116.385,
      "theater": "全域",
      "notes": "全國最高軍事領導機構，習近平任主席",
      "sources": [
        "DoD CMPR 2024, pp. 1-3 組織圖",
        "IISS Military Balance 2024, China chapter",
        "Allen, Chen (2020). The PLA's New Organizational Structure, RAND"
      ]
    },
    {
      "id": "prc-tc-eastern",
      "name_zh": "東部戰區",
      "name_en": "Eastern Theater Command",
      "service": "戰區",
      "type": "theater_hq",
      "tier": 1,
      "city_zh": "南京",
      "lat": 32.06,
      "lng": 118.78,
      "theater": "東部戰區",
      "notes": "AOR：臺海、東海。轄江蘇、浙江、安徽、福建、江西、上海",
      "sources": ["DoD CMPR 2024, p. 65", "IISS Military Balance 2024"]
    },
    {
      "id": "prc-tc-southern",
      "name_zh": "南部戰區",
      "name_en": "Southern Theater Command",
      "service": "戰區",
      "type": "theater_hq",
      "tier": 1,
      "city_zh": "廣州",
      "lat": 23.13,
      "lng": 113.26,
      "theater": "南部戰區",
      "notes": "AOR：南海、東南亞。轄廣東、廣西、海南、雲南、貴州、湖南、湖北",
      "sources": ["DoD CMPR 2024, p. 65", "IISS Military Balance 2024"]
    },
    {
      "id": "prc-tc-western",
      "name_zh": "西部戰區",
      "name_en": "Western Theater Command",
      "service": "戰區",
      "type": "theater_hq",
      "tier": 1,
      "city_zh": "成都",
      "lat": 30.57,
      "lng": 104.07,
      "theater": "西部戰區",
      "notes": "AOR：印度邊境、中亞。轄川藏疆甘寧青渝",
      "sources": ["DoD CMPR 2024, p. 65", "IISS Military Balance 2024"]
    },
    {
      "id": "prc-tc-northern",
      "name_zh": "北部戰區",
      "name_en": "Northern Theater Command",
      "service": "戰區",
      "type": "theater_hq",
      "tier": 1,
      "city_zh": "瀋陽",
      "lat": 41.8,
      "lng": 123.43,
      "theater": "北部戰區",
      "notes": "AOR：朝鮮半島、俄羅斯邊境。轄遼吉黑、內蒙古、山東",
      "sources": ["DoD CMPR 2024, p. 65", "IISS Military Balance 2024"]
    },
    {
      "id": "prc-tc-central",
      "name_zh": "中部戰區",
      "name_en": "Central Theater Command",
      "service": "戰區",
      "type": "theater_hq",
      "tier": 1,
      "city_zh": "北京",
      "lat": 39.9042,
      "lng": 116.4074,
      "theater": "中部戰區",
      "notes": "首都防衛、戰略預備隊。轄京津冀、晉、豫、陝",
      "sources": ["DoD CMPR 2024, p. 65", "IISS Military Balance 2024"]
    },
    {
      "id": "prc-plaa-hq",
      "name_zh": "陸軍領導機構",
      "name_en": "PLA Army HQ",
      "service": "陸軍",
      "type": "service_hq",
      "tier": 1,
      "city_zh": "北京",
      "lat": 39.871,
      "lng": 116.469,
      "theater": "全域",
      "sources": ["DoD CMPR 2024, p. 67", "IISS Military Balance 2024"]
    },
    {"id":"prc-plaa-71ga","name_zh":"第71集團軍","name_en":"71st Group Army","service":"陸軍","type":"army_garrison","tier":2,"city_zh":"江蘇徐州","lat":34.26,"lng":117.19,"theater":"東部戰區","sources":["DoD CMPR 2024","IISS Military Balance 2024","Blasko, The Chinese Army Today"]},
    {"id":"prc-plaa-72ga","name_zh":"第72集團軍","name_en":"72nd Group Army","service":"陸軍","type":"army_garrison","tier":2,"city_zh":"浙江湖州","lat":30.87,"lng":120.09,"theater":"東部戰區","sources":["DoD CMPR 2024","IISS Military Balance 2024"]},
    {"id":"prc-plaa-73ga","name_zh":"第73集團軍","name_en":"73rd Group Army","service":"陸軍","type":"army_garrison","tier":2,"city_zh":"福建廈門","lat":24.48,"lng":118.09,"theater":"東部戰區","notes":"對臺正面集團軍","sources":["DoD CMPR 2024","IISS Military Balance 2024"]},
    {"id":"prc-plaa-74ga","name_zh":"第74集團軍","name_en":"74th Group Army","service":"陸軍","type":"army_garrison","tier":2,"city_zh":"廣東惠州","lat":23.11,"lng":114.42,"theater":"南部戰區","sources":["DoD CMPR 2024","IISS Military Balance 2024"]},
    {"id":"prc-plaa-75ga","name_zh":"第75集團軍","name_en":"75th Group Army","service":"陸軍","type":"army_garrison","tier":2,"city_zh":"雲南昆明","lat":25.04,"lng":102.71,"theater":"南部戰區","sources":["DoD CMPR 2024","IISS Military Balance 2024"]},
    {"id":"prc-plaa-76ga","name_zh":"第76集團軍","name_en":"76th Group Army","service":"陸軍","type":"army_garrison","tier":2,"city_zh":"青海西寧","lat":36.62,"lng":101.78,"theater":"西部戰區","sources":["DoD CMPR 2024","IISS Military Balance 2024"]},
    {"id":"prc-plaa-77ga","name_zh":"第77集團軍","name_en":"77th Group Army","service":"陸軍","type":"army_garrison","tier":2,"city_zh":"四川 / 重慶","lat":29.56,"lng":106.55,"theater":"西部戰區","sources":["DoD CMPR 2024","IISS Military Balance 2024"]},
    {"id":"prc-plaa-78ga","name_zh":"第78集團軍","name_en":"78th Group Army","service":"陸軍","type":"army_garrison","tier":2,"city_zh":"黑龍江哈爾濱","lat":45.75,"lng":126.65,"theater":"北部戰區","sources":["DoD CMPR 2024","IISS Military Balance 2024"]},
    {"id":"prc-plaa-79ga","name_zh":"第79集團軍","name_en":"79th Group Army","service":"陸軍","type":"army_garrison","tier":2,"city_zh":"遼寧遼陽","lat":41.27,"lng":123.17,"theater":"北部戰區","sources":["DoD CMPR 2024","IISS Military Balance 2024"]},
    {"id":"prc-plaa-80ga","name_zh":"第80集團軍","name_en":"80th Group Army","service":"陸軍","type":"army_garrison","tier":2,"city_zh":"山東濰坊","lat":36.71,"lng":119.10,"theater":"北部戰區","sources":["DoD CMPR 2024","IISS Military Balance 2024"]},
    {"id":"prc-plaa-81ga","name_zh":"第81集團軍","name_en":"81st Group Army","service":"陸軍","type":"army_garrison","tier":2,"city_zh":"河北張家口","lat":40.81,"lng":114.88,"theater":"中部戰區","sources":["DoD CMPR 2024","IISS Military Balance 2024"]},
    {"id":"prc-plaa-82ga","name_zh":"第82集團軍","name_en":"82nd Group Army","service":"陸軍","type":"army_garrison","tier":2,"city_zh":"河北保定","lat":38.87,"lng":115.46,"theater":"中部戰區","sources":["DoD CMPR 2024","IISS Military Balance 2024"]},
    {"id":"prc-plaa-83ga","name_zh":"第83集團軍","name_en":"83rd Group Army","service":"陸軍","type":"army_garrison","tier":2,"city_zh":"河南新鄉","lat":35.30,"lng":113.93,"theater":"中部戰區","sources":["DoD CMPR 2024","IISS Military Balance 2024"]}
  ]
}
