{
  "bases": [
    {
      "id": "prc-plan-hq",
      "name_zh": "海軍領導機構",
      "name_en": "PLA Navy HQ",
      "service": "海軍",
      "type": "service_hq",
      "tier": 1,
      "city_zh": "北京",
      "lat": 39.887,
      "lng": 116.356,
      "theater": "全域",
      "sources": ["DoD CMPR 2024, p. 68", "IISS Military Balance 2024"]
    },
    {"id":"prc-plan-nsf","name_zh":"北海艦隊司令部","name_en":"North Sea Fleet HQ","service":"海軍","type":"fleet_hq","tier":1,"city_zh":"山東青島","lat":36.07,"lng":120.38,"theater":"北部戰區","sources":["DoD CMPR 2024","IISS Military Balance 2024","ONI China Naval Modernization"]},
    {"id":"prc-plan-esf","name_zh":"東海艦隊司令部","name_en":"East Sea Fleet HQ","service":"海軍","type":"fleet_hq","tier":1,"city_zh":"浙江寧波","lat":29.87,"lng":121.54,"theater":"東部戰區","sources":["DoD CMPR 2024","IISS Military Balance 2024"]},
    {"id":"prc-plan-ssf","name_zh":"南海艦隊司令部","name_en":"South Sea Fleet HQ","service":"海軍","type":"fleet_hq","tier":1,"city_zh":"廣東湛江","lat":21.22,"lng":110.41,"theater":"南部戰區","sources":["DoD CMPR 2024","IISS Military Balance 2024"]},
    {"id":"prc-plan-qingdao","name_zh":"青島海軍基地","name_en":"Qingdao Naval Base (Fujiazhang)","service":"海軍","type":"naval_base","tier":2,"city_zh":"山東青島","lat":36.066,"lng":120.322,"theater":"北部戰區","notes":"北海艦隊主力水面艦基地","sources":["DoD CMPR 2024","CSIS AMTI","ONI"]},
    {"id":"prc-plan-jianggezhuang","name_zh":"姜各莊潛艦基地","name_en":"Jianggezhuang Submarine Base","service":"海軍","type":"submarine_base","tier":2,"city_zh":"山東青島","lat":36.12,"lng":120.57,"theater":"北部戰區","notes":"094 SSBN / 093 SSN 母港","sources":["FAS Nuclear Notebook 2024","CSIS ChinaPower","Hans Kristensen, FAS"]},
    {"id":"prc-plan-lushun","name_zh":"旅順海軍基地","name_en":"Lushun/Dalian Naval Base","service":"海軍","type":"naval_base","tier":2,"city_zh":"遼寧大連","lat":38.81,"lng":121.26,"theater":"北部戰區","notes":"歷史軍港；船廠、潛艦設施","sources":["IISS Military Balance 2024","DoD CMPR 2024"]},
    {"id":"prc-plan-daxie","name_zh":"寧波大榭島基地","name_en":"Ningbo Daxie Island Naval Base","service":"海軍","type":"naval_base","tier":2,"city_zh":"浙江寧波","lat":29.92,"lng":121.96,"theater":"東部戰區","notes":"東海艦隊主力水面艦基地","sources":["DoD CMPR 2024","CSIS AMTI"]},
    {"id":"prc-plan-xiangshan","name_zh":"象山潛艦基地","name_en":"Xiangshan Submarine Base","service":"海軍","type":"submarine_base","tier":2,"city_zh":"浙江象山","lat":29.45,"lng":121.87,"theater":"東部戰區","sources":["IISS Military Balance 2024"]},
    {"id":"prc-plan-shanghai","name_zh":"上海吳淞基地","name_en":"Shanghai Wusong Naval Base","service":"海軍","type":"naval_base","tier":2,"city_zh":"上海","lat":31.39,"lng":121.50,"theater":"東部戰區","notes":"江南造船廠所在地","sources":["DoD CMPR 2024"]},
    {"id":"prc-plan-zhanjiang","name_zh":"湛江海軍基地","name_en":"Zhanjiang Naval Base","service":"海軍","type":"naval_base","tier":2,"city_zh":"廣東湛江","lat":21.22,"lng":110.41,"theater":"南部戰區","notes":"南海艦隊主力水面艦基地","sources":["DoD CMPR 2024","CSIS AMTI"]},
    {"id":"prc-plan-yulin","name_zh":"三亞榆林龍坡基地","name_en":"Yulin Naval Base (Sanya/Longpo)","service":"海軍","type":"submarine_base","tier":1,"city_zh":"海南三亞","lat":18.23,"lng":109.56,"theater":"南部戰區","notes":"SSBN 地下洞庫設施；IISS 評為「最重要」","sources":["DoD CMPR 2024","CSIS AMTI 衛星影像","FAS","IISS Military Balance 2024"]},
    {"id":"prc-plan-haikou","name_zh":"海口基地","name_en":"Haikou Naval Base","service":"海軍","type":"naval_base","tier":3,"city_zh":"海南海口","lat":20.01,"lng":110.35,"theater":"南部戰區","notes":"兩棲/支援基地","sources":["CSIS AMTI"]},
    {"id":"prc-plan-woody","name_zh":"永興島 (西沙)","name_en":"Woody Island (Yongxing Dao)","service":"海軍","type":"island_garrison","tier":2,"city_zh":"三沙市","lat":16.83,"lng":112.34,"theater":"南部戰區","notes":"西沙群島駐軍；跑道、雷達、CIWS；三沙市政府所在","sources":["CSIS AMTI","DoD CMPR 2024"]},
    {"id":"prc-plan-fiery","name_zh":"永暑礁 (南沙)","name_en":"Fiery Cross Reef","service":"海軍","type":"island_garrison","tier":2,"city_zh":"南沙人工島","lat":9.55,"lng":112.89,"theater":"南部戰區","notes":"3,000m 跑道；雷達、CIWS、機庫","sources":["CSIS AMTI","DoD CMPR 2024"]},
    {"id":"prc-plan-subi","name_zh":"渚碧礁 (南沙)","name_en":"Subi Reef","service":"海軍","type":"island_garrison","tier":2,"city_zh":"南沙人工島","lat":10.92,"lng":114.08,"theater":"南部戰區","notes":"3,000m 跑道","sources":["CSIS AMTI","DoD CMPR 2024"]},
    {"id":"prc-plan-mischief","name_zh":"美濟礁 (南沙)","name_en":"Mischief Reef","service":"海軍","type":"island_garrison","tier":2,"city_zh":"南沙人工島","lat":9.90,"lng":115.53,"theater":"南部戰區","notes":"3,000m 跑道","sources":["CSIS AMTI","DoD CMPR 2024"]},

    {"id":"prc-plaaf-hq","name_zh":"空軍領導機構","name_en":"PLA Air Force HQ","service":"空軍","type":"service_hq","tier":1,"city_zh":"北京","lat":39.875,"lng":116.425,"theater":"全域","sources":["DoD CMPR 2024","IISS Military Balance 2024"]},
    {"id":"prc-plaaf-wuhu","name_zh":"蕪湖空軍基地","name_en":"Wuhu Air Base","service":"空軍","type":"air_base","tier":2,"city_zh":"安徽蕪湖","lat":31.37,"lng":118.41,"theater":"東部戰區","notes":"殲-20 最早作戰部署基地","sources":["Janes","IISS Military Balance 2024"]},
    {"id":"prc-plaaf-dingxin","name_zh":"鼎新試訓基地","name_en":"Dingxin Test & Training Center","service":"空軍","type":"air_base","tier":2,"city_zh":"甘肅鼎新","lat":40.33,"lng":99.65,"theater":"西部戰區","notes":"「中國內利斯」; J-20 測試","sources":["CSIS","Janes","DoD CMPR"]},
    {"id":"prc-plaaf-cangzhou","name_zh":"滄州空軍基地","name_en":"Cangzhou Air Base","service":"空軍","type":"air_base","tier":2,"city_zh":"河北滄州","lat":38.31,"lng":116.83,"theater":"中部戰區","notes":"空軍飛行試驗訓練中心","sources":["Janes"]},
    {"id":"prc-plaaf-qionglai","name_zh":"邛崍空軍基地","name_en":"Chengdu-Qionglai Air Base","service":"空軍","type":"air_base","tier":2,"city_zh":"四川邛崍","lat":30.41,"lng":103.44,"theater":"西部戰區","notes":"轟-6K/H-6N 轟炸機基地","sources":["DoD CMPR 2024","FAS"]},
    {"id":"prc-plaaf-suixi","name_zh":"遂溪空軍基地","name_en":"Suixi Air Base","service":"空軍","type":"air_base","tier":2,"city_zh":"廣東遂溪","lat":21.35,"lng":110.22,"theater":"南部戰區","notes":"Su-35、殲-11B；面向南海","sources":["DoD CMPR","IISS Military Balance 2024"]},
    {"id":"prc-plaaf-longtian","name_zh":"龍田空軍基地","name_en":"Longtian Air Base","service":"空軍","type":"air_base","tier":2,"city_zh":"福建龍田","lat":25.61,"lng":119.47,"theater":"東部戰區","notes":"殲-16/殲-10C; 面向臺海","sources":["DoD CMPR","衛星影像分析"]},
    {"id":"prc-plaaf-quzhou","name_zh":"衢州空軍基地","name_en":"Quzhou Air Base","service":"空軍","type":"air_base","tier":2,"city_zh":"浙江衢州","lat":28.97,"lng":118.90,"theater":"東部戰區","notes":"殲-16; 臺海應急","sources":["IISS Military Balance 2024"]},
    {"id":"prc-plaaf-anshan","name_zh":"鞍山空軍基地","name_en":"Anshan Air Base","service":"空軍","type":"air_base","tier":2,"city_zh":"遼寧鞍山","lat":41.10,"lng":122.85,"theater":"北部戰區","notes":"殲-20 部署基地","sources":["IISS Military Balance 2024","Janes"]},
    {"id":"prc-plaaf-lhasa","name_zh":"貢嘎空軍基地","name_en":"Lhasa/Gonggar Air Base","service":"空軍","type":"air_base","tier":2,"city_zh":"西藏貢嘎","lat":29.30,"lng":90.92,"theater":"西部戰區","notes":"殲-11/殲-16; 高原作戰; 印度邊境","sources":["DoD CMPR","IISS"]},
    {"id":"prc-plaaf-hotan","name_zh":"和田空軍基地","name_en":"Hotan Air Base","service":"空軍","type":"air_base","tier":2,"city_zh":"新疆和田","lat":37.04,"lng":79.87,"theater":"西部戰區","notes":"印度邊境前沿部署","sources":["DoD CMPR","衛星影像分析"]},
    {"id":"prc-plaaf-hangzhou","name_zh":"杭州筧橋基地","name_en":"Hangzhou Jianqiao Air Base","service":"空軍","type":"air_base","tier":2,"city_zh":"浙江杭州","lat":30.23,"lng":120.18,"theater":"東部戰區","notes":"空警-500 預警機基地","sources":["IISS Military Balance 2024"]},
    {"id":"prc-plaaf-wugong","name_zh":"武功空軍基地","name_en":"Wugong Air Base","service":"空軍","type":"air_base","tier":2,"city_zh":"陝西武功","lat":34.27,"lng":108.22,"theater":"中部戰區","notes":"運-20 運輸機 / 運-20U 加油機基地","sources":["DoD CMPR 2024","IISS"]},
    {"id":"prc-plaaf-nanning","name_zh":"南寧吳圩基地","name_en":"Nanning Wuxu Air Base","service":"空軍","type":"air_base","tier":2,"city_zh":"廣西南寧","lat":22.61,"lng":108.17,"theater":"南部戰區","notes":"殲-10; 南海方向","sources":["IISS Military Balance 2024"]},
    {"id":"prc-plan-lingshui","name_zh":"陵水海軍航空基地","name_en":"Lingshui PLAN Air Base","service":"海軍航空兵","type":"air_base","tier":2,"city_zh":"海南陵水","lat":18.51,"lng":110.05,"theater":"南部戰區","notes":"殲-11BH; 南海巡邏; 2001年EP-3事件地點","sources":["DoD CMPR 2024","IISS Military Balance 2024"]}
  ]
}
